{
"type": "FeatureCollection",
"name": "Slide3_PRP",
"crs": { "type": "name", "properties": { "name": "urn:ogc:def:crs:OGC:1.3:CRS84" } },
"features": [
{ "type": "Feature", "properties": { "OBJECTID": 1, "Category": "Automotive", "Name": "7th Wave Carwash and Detail Center" }, "geometry": { "type": "Point", "coordinates": [ -104.78009, 38.838173 ] } },
{ "type": "Feature", "properties": { "OBJECTID": 2, "Category": "Automotive", "Name": "All Seasons Auto Wash" }, "geometry": { "type": "Point", "coordinates": [ -104.838931999999872, 38.897306 ] } },
{ "type": "Feature", "properties": { "OBJECTID": 3, "Category": "Automotive", "Name": "Aloha Detailing" }, "geometry": { "type": "Point", "coordinates": [ -104.839729999999875, 38.926323 ] } },
{ "type": "Feature", "properties": { "OBJECTID": 4, "Category": "Automotive", "Name": "Alpine Buick GMC South" }, "geometry": { "type": "Point", "coordinates": [ -104.830764999999872, 38.81417 ] } },
{ "type": "Feature", "properties": { "OBJECTID": 5, "Category": "Asphalt and Concrete Manufacturing and Recycling (active)", "Name": "Asphalt Recovery Specialists, Inc" }, "geometry": { "type": "Point", "coordinates": [ -104.687360999999825, 38.870632 ] } },
{ "type": "Feature", "properties": { "OBJECTID": 6, "Category": "Semi Conductor Manufacturing", "Name": "Atmel" }, "geometry": { "type": "Point", "coordinates": [ -104.805626, 38.789076 ] } },
{ "type": "Feature", "properties": { "OBJECTID": 7, "Category": "Automotive", "Name": "Audi of Colorado Springs" }, "geometry": { "type": "Point", "coordinates": [ -104.8379, 38.815968 ] } },
{ "type": "Feature", "properties": { "OBJECTID": 8, "Category": "Metal Plating and Coatings (active)", "Name": "AVX Corp" }, "geometry": { "type": "Point", "coordinates": [ -104.79148, 38.79014 ] } },
{ "type": "Feature", "properties": { "OBJECTID": 9, "Category": "RCRA", "Name": "BNSF" }, "geometry": { "type": "Point", "coordinates": [ -104.85205, 39.006999999999891 ] } },
{ "type": "Feature", "properties": { "OBJECTID": 10, "Category": "Dry Cleaners\/RCRA", "Name": "Broadmoor Hotel Cleaners" }, "geometry": { "type": "Point", "coordinates": [ -104.85205, 38.79284 ] } },
{ "type": "Feature", "properties": { "OBJECTID": 11, "Category": "Automotive", "Name": "BumperDoc" }, "geometry": { "type": "Point", "coordinates": [ -104.82631, 38.90126 ] } },
{ "type": "Feature", "properties": { "OBJECTID": 12, "Category": "Automotive", "Name": "Carefree Car Wash" }, "geometry": { "type": "Point", "coordinates": [ -104.72915, 38.73092 ] } },
{ "type": "Feature", "properties": { "OBJECTID": 13, "Category": "Wastewater Treatment Plant, Biosolids, Landfills, and  Power Plants", "Name": "Cherokee Metropolitan District WWTP" }, "geometry": { "type": "Point", "coordinates": [ -104.708645772962981, 38.837667125206977 ] } },
{ "type": "Feature", "properties": { "OBJECTID": 14, "Category": "Automotive", "Name": "Christians Luxury Bubbles Auto Detailing" }, "geometry": { "type": "Point", "coordinates": [ -104.71445, 38.840893 ] } },
{ "type": "Feature", "properties": { "OBJECTID": 15, "Category": "Airport", "Name": "City Of Colorado Springs, Airport Department" }, "geometry": { "type": "Point", "coordinates": [ -104.700277, 38.805833 ] } },
{ "type": "Feature", "properties": { "OBJECTID": 16, "Category": "Automotive", "Name": "Classic Car Wash" }, "geometry": { "type": "Point", "coordinates": [ -104.75645799999883, 38.891607 ] } },
{ "type": "Feature", "properties": { "OBJECTID": 17, "Category": "Wastewater Treatment Plant, Biosolids, Landfills, and  Power Plants", "Name": "Clear Springs Biosolids Line" }, "geometry": { "type": "Point", "coordinates": [ -104.713966, 38.614043 ] } },
{ "type": "Feature", "properties": { "OBJECTID": 18, "Category": "Metal Plating and Coatings (closed)", "Name": "Colorado Curly's Specialty Plating" }, "geometry": { "type": "Point", "coordinates": [ -104.77356, 38.836799999999876 ] } },
{ "type": "Feature", "properties": { "OBJECTID": 19, "Category": "Automotive", "Name": "Colorado Springs Dodge" }, "geometry": { "type": "Point", "coordinates": [ -104.73969, 38.939686 ] } },
{ "type": "Feature", "properties": { "OBJECTID": 20, "Category": "Fire Departments", "Name": "Colorado Springs Fire Dept" }, "geometry": { "type": "Point", "coordinates": [ -104.76289, 38.83574 ] } },
{ "type": "Feature", "properties": { "OBJECTID": 21, "Category": "Metal Plating and Coatings (active)", "Name": "Colorado Springs Plating Facility" }, "geometry": { "type": "Point", "coordinates": [ -104.777469999998829, 38.79542 ] } },
{ "type": "Feature", "properties": { "OBJECTID": 22, "Category": "Fuel Farms", "Name": "Colorado Springs Refined Products Terminal" }, "geometry": { "type": "Point", "coordinates": [ -104.67661, 38.78316 ] } },
{ "type": "Feature", "properties": { "OBJECTID": 23, "Category": "Wastewater Treatment Plant, Biosolids, Landfills, and  Power Plants", "Name": "Colorado Springs Utilities" }, "geometry": { "type": "Point", "coordinates": [ -104.833099999999874, 38.8244 ] } },
{ "type": "Feature", "properties": { "OBJECTID": 24, "Category": "Wastewater Treatment Plant, Biosolids, Landfills, and  Power Plants", "Name": "Colorado Springs Utilities J.D. Phillips WWTP" }, "geometry": { "type": "Point", "coordinates": [ -104.825544999999877, 38.89463 ] } },
{ "type": "Feature", "properties": { "OBJECTID": 25, "Category": "Wastewater Treatment Plant, Biosolids, Landfills, and  Power Plants", "Name": "Colorado Springs Utilities Las Vegas St. WWTP" }, "geometry": { "type": "Point", "coordinates": [ -104.808302385447945, 38.813295255365958 ] } },
{ "type": "Feature", "properties": { "OBJECTID": 26, "Category": "Wastewater Treatment Plant, Biosolids, Landfills, and  Power Plants", "Name": "Colorado Springs Utilities Martin Drake Power Plant" }, "geometry": { "type": "Point", "coordinates": [ -104.833099999999874, 38.8244 ] } },
{ "type": "Feature", "properties": { "OBJECTID": 27, "Category": "Wastewater Treatment Plant, Biosolids, Landfills, and  Power Plants", "Name": "Colorado Springs Waste Transfer Station (aka Waste Management Of North America)" }, "geometry": { "type": "Point", "coordinates": [ -104.800348, 38.803782 ] } },
{ "type": "Feature", "properties": { "OBJECTID": 28, "Category": "Dry Cleaners\/RCRA", "Name": "Couture's Fabric Care" }, "geometry": { "type": "Point", "coordinates": [ -104.775352, 38.904339999999898 ] } },
{ "type": "Feature", "properties": { "OBJECTID": 29, "Category": "Dry Cleaners\/RCRA", "Name": "Couture's Fabric Care" }, "geometry": { "type": "Point", "coordinates": [ -104.775352, 38.904339999999898 ] } },
{ "type": "Feature", "properties": { "OBJECTID": 30, "Category": "Automotive", "Name": "CRM Auto Detailing" }, "geometry": { "type": "Point", "coordinates": [ -104.77584, 38.84633 ] } },
{ "type": "Feature", "properties": { "OBJECTID": 31, "Category": "Dry Cleaners\/RCRA", "Name": "Daisy Cleaners (aka One Hour Daisy Cleaners)" }, "geometry": { "type": "Point", "coordinates": [ -104.74675, 38.897796 ] } },
{ "type": "Feature", "properties": { "OBJECTID": 32, "Category": "Automotive", "Name": "Daniels Long Chevrolet" }, "geometry": { "type": "Point", "coordinates": [ -104.83929, 38.8173 ] } },
{ "type": "Feature", "properties": { "OBJECTID": 33, "Category": "Asphalt and Concrete Manufacturing and Recycling (active)", "Name": "Delta Plant" }, "geometry": { "type": "Point", "coordinates": [ -104.771219999999815, 38.792528 ] } },
{ "type": "Feature", "properties": { "OBJECTID": 34, "Category": "Automotive", "Name": "Detailing by Dee" }, "geometry": { "type": "Point", "coordinates": [ -104.845085, 38.88633 ] } },
{ "type": "Feature", "properties": { "OBJECTID": 35, "Category": "Semi Conductor Manufacturing", "Name": "dpiX LLC (aka NCR Corp)" }, "geometry": { "type": "Point", "coordinates": [ -104.73227, 38.80917 ] } },
{ "type": "Feature", "properties": { "OBJECTID": 36, "Category": "Metal Plating and Coatings (closed)", "Name": "Dynamic Details Inc" }, "geometry": { "type": "Point", "coordinates": [ -104.71432, 38.846209999999878 ] } },
{ "type": "Feature", "properties": { "OBJECTID": 37, "Category": "Metal Plating and Coatings (active)", "Name": "Eagle Picher Industries Inc" }, "geometry": { "type": "Point", "coordinates": [ -104.739109999999869, 38.774118 ] } },
{ "type": "Feature", "properties": { "OBJECTID": 38, "Category": "Metal Plating and Coatings (active)\/RCRA", "Name": "Eagle Picher Technologies LLC" }, "geometry": { "type": "Point", "coordinates": [ -104.73895, 38.7759 ] } },
{ "type": "Feature", "properties": { "OBJECTID": 39, "Category": "Quarry", "Name": "Edward C. Levy DBA Schmidt Construction Co" }, "geometry": { "type": "Point", "coordinates": [ -104.77239, 38.79225 ] } },
{ "type": "Feature", "properties": { "OBJECTID": 40, "Category": "Dry Cleaners", "Name": "El Dorado Cleaners (aka Fashion Cleaners)" }, "geometry": { "type": "Point", "coordinates": [ -104.76702, 38.83713 ] } },
{ "type": "Feature", "properties": { "OBJECTID": 41, "Category": "Metal Plating and Coatings (active)", "Name": "Electronics Metal Finishing Corp" }, "geometry": { "type": "Point", "coordinates": [ -104.79177, 38.7882 ] } },
{ "type": "Feature", "properties": { "OBJECTID": 42, "Category": "Dry Cleaners", "Name": "European Drycleaner" }, "geometry": { "type": "Point", "coordinates": [ -104.756994999999876, 38.87988 ] } },
{ "type": "Feature", "properties": { "OBJECTID": 43, "Category": "Automotive", "Name": "Experience Matters Detail Shop" }, "geometry": { "type": "Point", "coordinates": [ -104.839521, 38.876669 ] } },
{ "type": "Feature", "properties": { "OBJECTID": 44, "Category": "Automotive", "Name": "Express Car Wash Colorado" }, "geometry": { "type": "Point", "coordinates": [ -104.79876, 38.989043 ] } },
{ "type": "Feature", "properties": { "OBJECTID": 45, "Category": "Automotive", "Name": "Falcon Car Wash" }, "geometry": { "type": "Point", "coordinates": [ -104.604699999999042, 38.939743 ] } },
{ "type": "Feature", "properties": { "OBJECTID": 46, "Category": "Automotive", "Name": "Fast Track Car Wash" }, "geometry": { "type": "Point", "coordinates": [ -104.817764999998971, 38.896922 ] } },
{ "type": "Feature", "properties": { "OBJECTID": 47, "Category": "Automotive", "Name": "Ferguson Buick GMC" }, "geometry": { "type": "Point", "coordinates": [ -104.75754, 38.817554 ] } },
{ "type": "Feature", "properties": { "OBJECTID": 48, "Category": "Automotive", "Name": "Ferguson Buick GMC" }, "geometry": { "type": "Point", "coordinates": [ -104.75754, 38.817554 ] } },
{ "type": "Feature", "properties": { "OBJECTID": 49, "Category": "Fire Departments", "Name": "Fountain Fire Department #2" }, "geometry": { "type": "Point", "coordinates": [ -104.700309, 38.715137 ] } },
{ "type": "Feature", "properties": { "OBJECTID": 50, "Category": "Commerical Irrigation", "Name": "Fountain Irrigation Company" }, "geometry": { "type": "Point", "coordinates": [ -104.707073, 38.709754 ] } },
{ "type": "Feature", "properties": { "OBJECTID": 51, "Category": "Wastewater Treatment Plant, Biosolids, Landfills, and  Power Plants", "Name": "Fountain WWTP" }, "geometry": { "type": "Point", "coordinates": [ -104.702527999999887, 38.666017 ] } },
{ "type": "Feature", "properties": { "OBJECTID": 52, "Category": "Automotive", "Name": "Freedom Honda" }, "geometry": { "type": "Point", "coordinates": [ -104.735125999998886, 38.937108 ] } },
{ "type": "Feature", "properties": { "OBJECTID": 53, "Category": "Dry Cleaners\/RCRA", "Name": "Galaxy Cleaners" }, "geometry": { "type": "Point", "coordinates": [ -104.700248, 38.83897 ] } },
{ "type": "Feature", "properties": { "OBJECTID": 54, "Category": "Metal Plating and Coatings (closed)", "Name": "Giga Connections Inc (aka NanoPierce Tech)" }, "geometry": { "type": "Point", "coordinates": [ -104.749719999999883, 38.810817 ] } },
{ "type": "Feature", "properties": { "OBJECTID": 55, "Category": "Dry Cleaners", "Name": "Golf Acres Laundry" }, "geometry": { "type": "Point", "coordinates": [ -104.802635, 38.85496 ] } },
{ "type": "Feature", "properties": { "OBJECTID": 56, "Category": "Dry Cleaners\/RCRA", "Name": "Golf Acres Laundry" }, "geometry": { "type": "Point", "coordinates": [ -104.802635, 38.85496 ] } },
{ "type": "Feature", "properties": { "OBJECTID": 57, "Category": "Metal Plating and Coatings (active)", "Name": "Goodrich Corp Aircraft Interiors" }, "geometry": { "type": "Point", "coordinates": [ -104.725, 38.811666 ] } },
{ "type": "Feature", "properties": { "OBJECTID": 58, "Category": "Automotive", "Name": "Heuberger Subaru" }, "geometry": { "type": "Point", "coordinates": [ -104.836479999999014, 38.819298 ] } },
{ "type": "Feature", "properties": { "OBJECTID": 59, "Category": "RCRA", "Name": "Hewlett-Packard (Colorado Springs)" }, "geometry": { "type": "Point", "coordinates": [ -104.862281, 38.896701999999891 ] } },
{ "type": "Feature", "properties": { "OBJECTID": 60, "Category": "Automotive", "Name": "In And Out Auto Salon" }, "geometry": { "type": "Point", "coordinates": [ -104.794289999999876, 38.798183 ] } },
{ "type": "Feature", "properties": { "OBJECTID": 61, "Category": "Semi Conductor Manufacturing", "Name": "Inmos Corp. (aka Quantum Corp)" }, "geometry": { "type": "Point", "coordinates": [ -104.80566, 38.78254 ] } },
{ "type": "Feature", "properties": { "OBJECTID": 62, "Category": "Airport", "Name": "JHW Hangar" }, "geometry": { "type": "Point", "coordinates": [ -104.722404, 38.801255 ] } },
{ "type": "Feature", "properties": { "OBJECTID": 63, "Category": "Metal Plating and Coatings (closed)", "Name": "Junior Achievement Inc" }, "geometry": { "type": "Point", "coordinates": [ -104.794507999998956, 38.791514999999897 ] } },
{ "type": "Feature", "properties": { "OBJECTID": 64, "Category": "Asphalt and Concrete Manufacturing and Recycling (active)", "Name": "Kiewit - Colorado Springs Asphalt Plant" }, "geometry": { "type": "Point", "coordinates": [ -104.772267, 38.78203599999987 ] } },
{ "type": "Feature", "properties": { "OBJECTID": 65, "Category": "Dry Cleaners", "Name": "Kings Drycleaning" }, "geometry": { "type": "Point", "coordinates": [ -104.822435999999882, 38.81221 ] } },
{ "type": "Feature", "properties": { "OBJECTID": 66, "Category": "Automotive", "Name": "Kingdom Wheels & Tires" }, "geometry": { "type": "Point", "coordinates": [ -104.772741255899987, 38.765742581700017 ] } },
{ "type": "Feature", "properties": { "OBJECTID": 67, "Category": "Automotive", "Name": "Land Rover Colorado Springs" }, "geometry": { "type": "Point", "coordinates": [ -104.837363999999013, 38.81589 ] } },
{ "type": "Feature", "properties": { "OBJECTID": 68, "Category": "Automotive", "Name": "Larry H. Miller Liberty Toyota Colorado Springs" }, "geometry": { "type": "Point", "coordinates": [ -104.733185, 38.938602 ] } },
{ "type": "Feature", "properties": { "OBJECTID": 69, "Category": "Automotive", "Name": "Larry H. Miller Toyota Colorado Springs" }, "geometry": { "type": "Point", "coordinates": [ -104.826256, 38.813865999999898 ] } },
{ "type": "Feature", "properties": { "OBJECTID": 70, "Category": "Automotive", "Name": "Lexus of Colorado Springs" }, "geometry": { "type": "Point", "coordinates": [ -104.840455, 38.815568 ] } },
{ "type": "Feature", "properties": { "OBJECTID": 71, "Category": "Dry Cleaners\/RCRA", "Name": "London Cleaners" }, "geometry": { "type": "Point", "coordinates": [ -104.816783, 38.775740999999869 ] } },
{ "type": "Feature", "properties": { "OBJECTID": 72, "Category": "Automotive", "Name": "Lotus Car Wash" }, "geometry": { "type": "Point", "coordinates": [ -104.737629999999868, 38.907078 ] } },
{ "type": "Feature", "properties": { "OBJECTID": 73, "Category": "Fuel Farms", "Name": "Magellan Midstream Partners Fuel Rack" }, "geometry": { "type": "Point", "coordinates": [ -104.70309, 38.669109 ] } },
{ "type": "Feature", "properties": { "OBJECTID": 74, "Category": "RCRA", "Name": "Magellan Pipeline Company LP" }, "geometry": { "type": "Point", "coordinates": [ -104.703252, 38.667388 ] } },
{ "type": "Feature", "properties": { "OBJECTID": 75, "Category": "Asphalt and Concrete Manufacturing and Recycling (active)", "Name": "Martin Marietta - Capital Asphalt Plant (aka Rocky Mtn Materials & Asphal Inc)" }, "geometry": { "type": "Point", "coordinates": [ -104.674719, 38.882732 ] } },
{ "type": "Feature", "properties": { "OBJECTID": 76, "Category": "Asphalt and Concrete Manufacturing and Recycling (active)", "Name": "Martin Marietta - Hwy 85\/87 Asphalt Plant (aka Rocky Mtn Materials & Asphal Inc)" }, "geometry": { "type": "Point", "coordinates": [ -104.758041, 38.835905 ] } },
{ "type": "Feature", "properties": { "OBJECTID": 77, "Category": "Automotive", "Name": "McCloskey Appearance Center" }, "geometry": { "type": "Point", "coordinates": [ -104.784199999999856, 38.908875 ] } },
{ "type": "Feature", "properties": { "OBJECTID": 78, "Category": "Automotive", "Name": "Mercedes-Benz of Colorado Springs" }, "geometry": { "type": "Point", "coordinates": [ -104.84103, 38.815826 ] } },
{ "type": "Feature", "properties": { "OBJECTID": 79, "Category": "Metal Plating and Coatings (closed)", "Name": "Microlink Technologies Corp." }, "geometry": { "type": "Point", "coordinates": [ -104.713959999999872, 38.86536 ] } },
{ "type": "Feature", "properties": { "OBJECTID": 80, "Category": "Automotive", "Name": "Mike Maroone Chevrolet North" }, "geometry": { "type": "Point", "coordinates": [ -104.795509999998984, 38.95309 ] } },
{ "type": "Feature", "properties": { "OBJECTID": 81, "Category": "Automotive", "Name": "Mike Maroone Chevrolet South" }, "geometry": { "type": "Point", "coordinates": [ -104.758551, 38.836496 ] } },
{ "type": "Feature", "properties": { "OBJECTID": 82, "Category": "Automotive", "Name": "Mike Maroone Honda" }, "geometry": { "type": "Point", "coordinates": [ -104.75358, 38.81631 ] } },
{ "type": "Feature", "properties": { "OBJECTID": 83, "Category": "Automotive", "Name": "Mike Maroone Volkswagen" }, "geometry": { "type": "Point", "coordinates": [ -104.79521, 38.95297 ] } },
{ "type": "Feature", "properties": { "OBJECTID": 84, "Category": "Automotive", "Name": "Miranda Auto Detail LLC. Limpiesa de Carros LLC" }, "geometry": { "type": "Point", "coordinates": [ -104.7719199999989, 38.838985 ] } },
{ "type": "Feature", "properties": { "OBJECTID": 85, "Category": "Automotive", "Name": "Mister Car Wash" }, "geometry": { "type": "Point", "coordinates": [ -104.727183999998971, 38.939439 ] } },
{ "type": "Feature", "properties": { "OBJECTID": 86, "Category": "Metal Plating and Coatings (active)", "Name": "Mobile Energy Products (aka Eagle-Picher Technologies LLC)" }, "geometry": { "type": "Point", "coordinates": [ -104.74057, 38.77588 ] } },
{ "type": "Feature", "properties": { "OBJECTID": 87, "Category": "Semi Conductor Manufacturing", "Name": "Mostek Corp" }, "geometry": { "type": "Point", "coordinates": [ -1.79769313486231571e+308, -1.79769313486231571e+308 ] } },
{ "type": "Feature", "properties": { "OBJECTID": 88, "Category": "Airport", "Name": "Municipal Airport Landfill" }, "geometry": { "type": "Point", "coordinates": [ -104.722358, 38.812707 ] } },
{ "type": "Feature", "properties": { "OBJECTID": 89, "Category": "Metal Plating and Coatings (closed)", "Name": "NanoPierce Technologies Inc" }, "geometry": { "type": "Point", "coordinates": [ -104.749719999999883, 38.810817 ] } },
{ "type": "Feature", "properties": { "OBJECTID": 90, "Category": "Dry Cleaners", "Name": "North Circle Cleaners" }, "geometry": { "type": "Point", "coordinates": [ -104.775766, 38.857827999999877 ] } },
{ "type": "Feature", "properties": { "OBJECTID": 91, "Category": "Automotive", "Name": "North Gate Car Wash" }, "geometry": { "type": "Point", "coordinates": [ -104.81828, 39.024887 ] } },
{ "type": "Feature", "properties": { "OBJECTID": 92, "Category": "Metal Plating and Coatings (closed)", "Name": "NTI - Double Sided Division (aka Dynamic Detail Inc)" }, "geometry": { "type": "Point", "coordinates": [ -104.71432, 38.846209999999878 ] } },
{ "type": "Feature", "properties": { "OBJECTID": 93, "Category": "Airport", "Name": "NuStar Logistics" }, "geometry": { "type": "Point", "coordinates": [ -104.677176, 38.783934 ] } },
{ "type": "Feature", "properties": { "OBJECTID": 94, "Category": "Dry Cleaners", "Name": "One Hour Cleaners" }, "geometry": { "type": "Point", "coordinates": [ -104.818449, 39.092731 ] } },
{ "type": "Feature", "properties": { "OBJECTID": 95, "Category": "Automotive", "Name": "Peak Kia Colorado Springs" }, "geometry": { "type": "Point", "coordinates": [ -104.79644, 38.9533 ] } },
{ "type": "Feature", "properties": { "OBJECTID": 96, "Category": "Automotive", "Name": "Perkins Motors" }, "geometry": { "type": "Point", "coordinates": [ -104.830749999998872, 38.814606 ] } },
{ "type": "Feature", "properties": { "OBJECTID": 97, "Category": "Automotive", "Name": "Phil Long Ford of Motor City" }, "geometry": { "type": "Point", "coordinates": [ -104.833145, 38.816906 ] } },
{ "type": "Feature", "properties": { "OBJECTID": 98, "Category": "Automotive", "Name": "Phil Long Hyundai of Chapel Hills" }, "geometry": { "type": "Point", "coordinates": [ -104.79702, 38.95342 ] } },
{ "type": "Feature", "properties": { "OBJECTID": 99, "Category": "Automotive", "Name": "Phil Long Hyundai of Motor City" }, "geometry": { "type": "Point", "coordinates": [ -104.82373, 38.81396 ] } },
{ "type": "Feature", "properties": { "OBJECTID": 100, "Category": "Automotive", "Name": "Phil Long Kia" }, "geometry": { "type": "Point", "coordinates": [ -104.83691, 38.820435 ] } },
{ "type": "Feature", "properties": { "OBJECTID": 101, "Category": "Automotive", "Name": "Pikes Peak Acura" }, "geometry": { "type": "Point", "coordinates": [ -104.83889, 38.817112 ] } },
{ "type": "Feature", "properties": { "OBJECTID": 102, "Category": "Airport", "Name": "Pikes Peak Aviation" }, "geometry": { "type": "Point", "coordinates": [ -104.721219, 38.809114 ] } },
{ "type": "Feature", "properties": { "OBJECTID": 103, "Category": "Automotive", "Name": "Pikes Peak International Raceway" }, "geometry": { "type": "Point", "coordinates": [ -104.677174999999878, 38.591059 ] } },
{ "type": "Feature", "properties": { "OBJECTID": 104, "Category": "Automotive", "Name": "Porsche of Colorado Springs" }, "geometry": { "type": "Point", "coordinates": [ -104.83875, 38.82164 ] } },
{ "type": "Feature", "properties": { "OBJECTID": 105, "Category": "RCRA", "Name": "Pueblo Cleaning Corp" }, "geometry": { "type": "Point", "coordinates": [ -104.78036, 38.80646 ] } },
{ "type": "Feature", "properties": { "OBJECTID": 106, "Category": "Automotive", "Name": "Quick Quack Car Wash" }, "geometry": { "type": "Point", "coordinates": [ -104.750275, 38.894993 ] } },
{ "type": "Feature", "properties": { "OBJECTID": 107, "Category": "Automotive", "Name": "Quickservice Auto Detail LLC" }, "geometry": { "type": "Point", "coordinates": [ -104.77712, 38.836812 ] } },
{ "type": "Feature", "properties": { "OBJECTID": 108, "Category": "Asphalt and Concrete Manufacturing and Recycling (active)", "Name": "Recycled Aggregate Products Co." }, "geometry": { "type": "Point", "coordinates": [ -104.789615, 38.802009 ] } },
{ "type": "Feature", "properties": { "OBJECTID": 109, "Category": "Automotive", "Name": "Red Noland Cadillac" }, "geometry": { "type": "Point", "coordinates": [ -104.83702, 38.821013999999877 ] } },
{ "type": "Feature", "properties": { "OBJECTID": 110, "Category": "Asphalt and Concrete Manufacturing and Recycling (active)", "Name": "Rocky Mtn Materials & Asphalt Portable" }, "geometry": { "type": "Point", "coordinates": [ -104.767520999999832, 38.78843 ] } },
{ "type": "Feature", "properties": { "OBJECTID": 111, "Category": "Dry Cleaners", "Name": "Rustic Hills Coin Laundry (aka Coin Op Laundry & Dry Cleaning)" }, "geometry": { "type": "Point", "coordinates": [ -104.756962, 38.852640999999899 ] } },
{ "type": "Feature", "properties": { "OBJECTID": 112, "Category": "Asphalt and Concrete Manufacturing and Recycling (active)", "Name": "Sand Creek Recycling Center Colorado Springs" }, "geometry": { "type": "Point", "coordinates": [ -104.771001, 38.77569 ] } },
{ "type": "Feature", "properties": { "OBJECTID": 113, "Category": "Metal Plating and Coatings (closed)", "Name": "Sanmina-Sci Corp Plant 12" }, "geometry": { "type": "Point", "coordinates": [ -104.718559999999812, 38.690989999999871 ] } },
{ "type": "Feature", "properties": { "OBJECTID": 114, "Category": "Metal Plating and Coatings (closed)", "Name": "Sanmina-Sci Corp Plant 12" }, "geometry": { "type": "Point", "coordinates": [ -104.728429999999875, 38.79728 ] } },
{ "type": "Feature", "properties": { "OBJECTID": 115, "Category": "Metal Plating and Coatings (active)\/RCRA", "Name": "Schlage Lock Company LLC" }, "geometry": { "type": "Point", "coordinates": [ -104.738789999998943, 38.77602 ] } },
{ "type": "Feature", "properties": { "OBJECTID": 116, "Category": "Fire Departments", "Name": "Security Fire Department #2" }, "geometry": { "type": "Point", "coordinates": [ -104.706309, 38.727864 ] } },
{ "type": "Feature", "properties": { "OBJECTID": 117, "Category": "Wastewater Treatment Plant, Biosolids, Landfills, and  Power Plants", "Name": "Security Water And Sanitation District WWTP" }, "geometry": { "type": "Point", "coordinates": [ -104.73839836266994, 38.73733972921908 ] } },
{ "type": "Feature", "properties": { "OBJECTID": 118, "Category": "Automotive", "Name": "Speedy Shine Express Car Wash" }, "geometry": { "type": "Point", "coordinates": [ -104.840719999999834, 38.82853 ] } },
{ "type": "Feature", "properties": { "OBJECTID": 119, "Category": "Automotive", "Name": "Splash Car Wash" }, "geometry": { "type": "Point", "coordinates": [ -104.714989999999844, 38.910088 ] } },
{ "type": "Feature", "properties": { "OBJECTID": 120, "Category": "Automotive", "Name": "Springs Detailing" }, "geometry": { "type": "Point", "coordinates": [ -104.83144, 38.8157 ] } },
{ "type": "Feature", "properties": { "OBJECTID": 121, "Category": "Fire Departments", "Name": "Stratmoor Hills Fire Department" }, "geometry": { "type": "Point", "coordinates": [ -104.787752999999881, 38.776782 ] } },
{ "type": "Feature", "properties": { "OBJECTID": 122, "Category": "Dry Cleaners", "Name": "Superior Cleaners" }, "geometry": { "type": "Point", "coordinates": [ -104.849437, 38.839858 ] } },
{ "type": "Feature", "properties": { "OBJECTID": 123, "Category": "Automotive", "Name": "The Hub on Lexington" }, "geometry": { "type": "Point", "coordinates": [ -104.75799, 38.936019999999878 ] } },
{ "type": "Feature", "properties": { "OBJECTID": 124, "Category": "Asphalt and Concrete Manufacturing and Recycling (active)", "Name": "Transit Mix" }, "geometry": { "type": "Point", "coordinates": [ -104.81532, 38.82941 ] } },
{ "type": "Feature", "properties": { "OBJECTID": 125, "Category": "Metal Plating and Coatings (closed)", "Name": "Ultra Pure Systems Inc" }, "geometry": { "type": "Point", "coordinates": [ -104.794529, 38.791541 ] } },
{ "type": "Feature", "properties": { "OBJECTID": 126, "Category": "RCRA", "Name": "US Army - Fort Carson" }, "geometry": { "type": "Point", "coordinates": [ -104.75, 38.75 ] } },
{ "type": "Feature", "properties": { "OBJECTID": 127, "Category": "Metal Plating and Coatings (closed)", "Name": "US EPA Cleanup High Quality Circuits" }, "geometry": { "type": "Point", "coordinates": [ -104.778041, 38.79531 ] } },
{ "type": "Feature", "properties": { "OBJECTID": 128, "Category": "Wastewater Treatment Plant, Biosolids, Landfills, and  Power Plants", "Name": "Waste Connections" }, "geometry": { "type": "Point", "coordinates": [ -104.68387, 38.86533 ] } },
{ "type": "Feature", "properties": { "OBJECTID": 129, "Category": "Automotive", "Name": "Water Works Car Wash" }, "geometry": { "type": "Point", "coordinates": [ -104.75747, 38.847992 ] } },
{ "type": "Feature", "properties": { "OBJECTID": 130, "Category": "Automotive", "Name": "Water Works Car Wash & Detail" }, "geometry": { "type": "Point", "coordinates": [ -104.82195, 38.82641 ] } },
{ "type": "Feature", "properties": { "OBJECTID": 131, "Category": "Automotive", "Name": "Water Works Car Wash & Detail Center" }, "geometry": { "type": "Point", "coordinates": [ -104.75747, 38.847992 ] } },
{ "type": "Feature", "properties": { "OBJECTID": 132, "Category": "Metal Plating and Coatings (active)\/RCRA", "Name": "Weatherford ALS LLC" }, "geometry": { "type": "Point", "coordinates": [ -104.67775, 38.879969 ] } },
{ "type": "Feature", "properties": { "OBJECTID": 133, "Category": "Metal Plating and Coatings (active)", "Name": "Weatherford Completions & Production Systems" }, "geometry": { "type": "Point", "coordinates": [ -104.682746999999878, 38.882924 ] } },
{ "type": "Feature", "properties": { "OBJECTID": 134, "Category": "Dry Cleaners\/RCRA", "Name": "White Cleaners" }, "geometry": { "type": "Point", "coordinates": [ -104.777735, 38.905293 ] } },
{ "type": "Feature", "properties": { "OBJECTID": 135, "Category": "Wastewater Treatment Plant, Biosolids, Landfills, and  Power Plants", "Name": "Widefield Water And Sanitation District WWTP" }, "geometry": { "type": "Point", "coordinates": [ -104.722905345861918, 38.721662413792679 ] } },
{ "type": "Feature", "properties": { "OBJECTID": 136, "Category": "Automotive", "Name": "Wild Blue Car Wash - Academy" }, "geometry": { "type": "Point", "coordinates": [ -104.757484, 38.8335 ] } },
{ "type": "Feature", "properties": { "OBJECTID": 137, "Category": "Automotive", "Name": "Wild Blue Car Wash - Powers" }, "geometry": { "type": "Point", "coordinates": [ -104.721459999998842, 38.895023 ] } },
{ "type": "Feature", "properties": { "OBJECTID": 138, "Category": "Automotive", "Name": "Woodmen Nissan" }, "geometry": { "type": "Point", "coordinates": [ -104.8107, 38.930157 ] } },
{ "type": "Feature", "properties": { "OBJECTID": 139, "Category": "Dry Cleaners\/RCRA", "Name": "York Cleaners LLC" }, "geometry": { "type": "Point", "coordinates": [ -104.794515, 38.930535 ] } },
{ "type": "Feature", "properties": { "OBJECTID": 140, "Category": "Fire Departments", "Name": "Fountain Fire Department #1" }, "geometry": { "type": "Point", "coordinates": [ -104.705224999999842, 38.691981 ] } },
{ "type": "Feature", "properties": { "OBJECTID": 141, "Category": "Fire Departments", "Name": "Fountain Fire Department #3" }, "geometry": { "type": "Point", "coordinates": [ -104.738433999999856, 38.743453 ] } },
{ "type": "Feature", "properties": { "OBJECTID": 142, "Category": "Fire Departments", "Name": "Security Village Fire Department" }, "geometry": { "type": "Point", "coordinates": [ -104.741486, 38.750042 ] } },
{ "type": "Feature", "properties": { "OBJECTID": 143, "Category": "Fire Departments", "Name": "Security Fire Department #3" }, "geometry": { "type": "Point", "coordinates": [ -104.733101, 38.768648 ] } },
{ "type": "Feature", "properties": { "OBJECTID": 144, "Category": "Dry Cleaners", "Name": "Kings One Hour Cleaners & Laundromat" }, "geometry": { "type": "Point", "coordinates": [ -104.777735, 38.905293 ] } },
{ "type": "Feature", "properties": { "OBJECTID": 145, "Category": "Dry Cleaners", "Name": "Kings One Hour Cleaners" }, "geometry": { "type": "Point", "coordinates": [ -104.757459999999867, 38.785818 ] } },
{ "type": "Feature", "properties": { "OBJECTID": 146, "Category": "Military", "Name": "Fort Carson AFB" }, "geometry": { "type": "Point", "coordinates": [ -104.760108246699673, 38.675034587831142 ] } },
{ "type": "Feature", "properties": { "OBJECTID": 147, "Category": "Military", "Name": "Peterson AFB" }, "geometry": { "type": "Point", "coordinates": [ -104.714085945413231, 38.826322507822198 ] } },
{ "type": "Feature", "properties": { "OBJECTID": 148, "Category": "Military", "Name": "U.S. Air Force Academy" }, "geometry": { "type": "Point", "coordinates": [ -104.881166763015329, 38.974178493378353 ] } },
{ "type": "Feature", "properties": { "OBJECTID": 149, "Category": "Military Fire Dept.", "Name": "Fort Carson Fire and Emergency Services" }, "geometry": { "type": "Point", "coordinates": [ -104.7912, 38.7403 ] } },
{ "type": "Feature", "properties": { "OBJECTID": 150, "Category": "Military Fire Dept.", "Name": "USAFA Fire and Emergency Services Station 1" }, "geometry": { "type": "Point", "coordinates": [ -104.846295999999896, 38.971336 ] } },
{ "type": "Feature", "properties": { "OBJECTID": 151, "Category": "Military Fire Dept.", "Name": "Schriever AFB Fire Department" }, "geometry": { "type": "Point", "coordinates": [ -104.524162, 38.803848 ] } },
{ "type": "Feature", "properties": { "OBJECTID": 152, "Category": "Military Fire Dept.", "Name": "Peterson AFB Fire Dept #1 (Bldg 218)" }, "geometry": { "type": "Point", "coordinates": [ -104.704039, 38.819453 ] } },
{ "type": "Feature", "properties": { "OBJECTID": 153, "Category": "Military Fire Dept.", "Name": "Peterson AFB Fire Dept #2 (Bldg 2032)" }, "geometry": { "type": "Point", "coordinates": [ -104.681128999999828, 38.806982 ] } }
]
}
